,city,country,lat,lon,temp,humidity,cloudiness,windiness,datetime
0,Narsaq,GL,60.9167,-46.05,269.15,58,75,0.51,1615678104
1,Grand Gaube,MU,-20.0064,57.6608,298.15,82,100,1.34,1615678229
2,Yellowknife,CA,62.456,-114.3525,255.3,65,90,2.57,1615678100
3,Rikitea,PF,-23.1203,-134.9692,300.08,73,39,3.73,1615677792
4,Altar,MX,30.7,-111.8167,289.82,35,29,2.24,1615678382
5,Jumla,NP,29.2747,82.1838,276.73,55,0,1.55,1615678383
6,Hobart,AU,-42.8794,147.3294,286.2,41,20,7.72,1615677932
7,Xiongzhou,CN,25.1167,114.3,291.2,81,25,1.19,1615678383
8,Ushuaia,AR,-54.8,-68.3,279.15,65,75,13.38,1615678100
9,Albany,US,42.6001,-73.9662,275.16,29,41,2.73,1615678159
10,Karatau,KZ,43.1667,70.4667,270.39,96,100,1.09,1615678384
11,Horasan,TR,40.0458,42.1728,261.66,75,100,0.29,1615678384
12,Punta Arenas,CL,-53.15,-70.9167,282.09,49,20,7.2,1615678091
13,Codajás,BR,-3.8367,-62.0569,297.74,86,37,1.04,1615678385
14,Pumiao,CN,22.75,108.4833,292.15,94,90,1.0,1615678385
15,Homer,US,59.6425,-151.5483,268.28,36,1,3.6,1615678236
16,Hermanus,ZA,-34.4187,19.2345,292.04,93,23,3.71,1615678172
17,Saint-Philippe,RE,-21.3585,55.7679,296.33,73,0,5.14,1615678196
18,Juneau,US,58.3019,-134.4197,267.44,40,90,4.12,1615678310
19,Ahmadpur East,PK,29.1431,71.2598,291.36,33,0,3.63,1615678386
20,Safranbolu,TR,41.2508,32.6942,276.88,74,54,0.63,1615678386
21,Klaksvík,FO,62.2266,-6.589,278.15,93,75,13.38,1615678175
22,Bredasdorp,ZA,-34.5322,20.0403,292.15,88,11,4.63,1615678169
23,Lyuban',BY,52.7985,28.0048,275.76,92,98,6.56,1615678387
24,Lebu,CL,-37.6167,-73.65,287.99,79,0,3.93,1615678178
25,Dikson,RU,73.5069,80.5464,242.91,97,100,7.12,1615678174
26,Cape Canaveral,US,28.4058,-80.6048,294.66,68,1,1.54,1615678387
27,Dinājpur,BD,25.6272,88.6386,293.12,52,49,2.38,1615678388
28,Olafsvik,IS,64.8945,-23.7142,271.24,70,69,5.95,1615678388
29,Luanda,AO,-8.8368,13.2343,301.15,78,75,2.57,1615678233
30,Esperance,AU,-33.8667,121.9,285.15,82,47,2.57,1615678224
31,Denpasar,ID,-8.65,115.2167,298.15,94,40,1.54,1615678389
32,Tuktoyaktuk,CA,69.4541,-133.0374,250.15,84,90,2.06,1615677826
33,Nanortalik,GL,60.1432,-45.2371,270.06,84,100,2.07,1615678226
34,Praia da Vitória,PT,38.7333,-27.0667,288.39,94,75,9.44,1615678389
35,Gamba,GA,-2.65,10.0,298.94,90,100,0.63,1615678390
36,Mar del Plata,AR,-38.0023,-57.5575,293.44,73,20,4.63,1615677982
37,Namatanai,PG,-3.6667,152.4333,302.38,59,10,2.0,1615678390
38,Angol,CL,-37.8,-72.7167,299.15,38,0,3.6,1615678390
39,Rundu,NA,-17.9333,19.7667,292.6,76,39,1.94,1615678391
40,Mendi,PG,-6.1761,143.6513,289.79,85,99,1.31,1615678391
41,Port Alfred,ZA,-33.5906,26.891,295.93,80,69,0.89,1615678166
42,Cape Town,ZA,-33.9258,18.4232,292.29,94,75,2.06,1615677809
43,Asău,RO,46.4333,26.4,274.82,63,3,2.3,1615678392
44,George Town,MY,5.4112,100.3354,298.38,94,20,1.03,1615678094
45,Souillac,MU,-20.5167,57.5167,300.15,83,40,2.57,1615678103
46,Kamenka,RU,51.3223,42.7678,269.26,90,100,6.59,1615678242
47,Hot Springs,US,34.5037,-93.0552,294.04,60,20,5.14,1615678156
48,Murray Bridge,AU,-35.1167,139.2667,286.13,69,21,1.34,1615678267
49,Ocós,GT,14.5094,-92.1933,303.68,58,75,5.14,1615678393
50,Sitka,US,57.0531,-135.33,274.15,55,20,5.66,1615678110
51,Shelburne,CA,44.0787,-80.2041,275.39,56,0,9.08,1615678210
52,Bumba,CD,2.1833,22.4667,295.17,96,100,0.86,1615678394
53,Guerrero Negro,MX,27.9769,-114.0611,289.75,49,0,9.08,1615678175
54,Husavik,IS,66.0449,-17.3389,268.15,74,40,3.09,1615678286
55,Kavaratti,IN,10.5669,72.642,301.15,70,48,3.01,1615678395
56,Matara,LK,5.9485,80.5353,297.18,87,80,3.7,1615678221
57,Doaba,PK,33.4244,70.7364,288.27,68,79,0.68,1615678396
58,Arraial do Cabo,BR,-22.9661,-42.0278,298.36,86,45,5.47,1615678251
59,Vaini,TO,-21.2,-175.2,299.15,83,75,4.12,1615678096
60,Qaanaaq,GL,77.484,-69.3632,254.0,63,99,3.32,1615678192
61,Hilo,US,19.7297,-155.09,294.08,78,90,2.06,1615677846
62,New Norfolk,AU,-42.7826,147.0587,284.78,51,4,3.17,1615677912
63,Moussoro,TD,13.6408,16.4901,303.71,9,18,4.91,1615678181
64,Hirara,JP,24.8,125.2833,292.15,68,40,3.6,1615678397
65,Khatanga,RU,71.9667,102.5,243.94,94,66,5.68,1615678109
66,Kapaa,US,22.0752,-159.319,294.35,88,90,11.83,1615678110
67,Barrow,US,71.2906,-156.7887,254.15,65,1,5.14,1615678154
68,Cravo Norte,CO,6.3017,-70.2041,303.31,47,94,1.88,1615678398
69,Chokurdakh,RU,70.6333,147.9167,246.27,89,0,1.81,1615678398
70,Soyo,AO,-6.1349,12.3689,299.95,84,63,3.22,1615678398
71,Caluquembe,AO,-13.7833,14.6833,290.26,90,93,1.47,1615678399
72,Lakselv,NO,70.0513,24.9718,269.15,80,90,3.6,1615678399
73,Camaná,PE,-16.6228,-72.7111,296.12,85,35,2.89,1615678399
74,Nemuro,JP,43.3236,145.575,273.75,92,100,10.47,1615678400
75,Lamar,US,33.6668,-95.5836,297.61,57,40,5.66,1615678400
76,Hithadhoo,MV,-0.6,73.0833,301.95,68,10,4.12,1615678096
77,Hong Kong,HK,22.2855,114.1577,292.49,82,55,0.45,1615678021
78,Kruisfontein,ZA,-34.0033,24.7314,293.71,77,84,0.89,1615678167
79,Faanui,PF,-16.4833,-151.75,301.3,72,70,5.87,1615678112
80,Casablanca,MA,33.5928,-7.6192,285.08,93,0,1.03,1615677664
81,Airai,TL,-8.9266,125.4092,290.96,90,95,0.51,1615678115
82,Bairnsdale,AU,-37.8333,147.6167,289.26,59,29,1.79,1615678401
83,Straumen,NO,63.8709,11.2999,272.61,74,0,3.09,1615678402
84,Cidreira,BR,-30.1811,-50.2056,296.55,84,17,5.07,1615678169
85,Serenje,ZM,-13.2325,30.2352,290.4,99,100,1.17,1615678402
86,Dīdwāna,IN,27.4,74.5667,291.71,39,19,1.24,1615678402
87,Tiksi,RU,71.6872,128.8694,253.32,92,73,3.65,1615678167
88,Torbay,CA,47.6666,-52.7314,274.75,75,75,4.63,1615678109
89,Ayan,RU,56.45,138.1667,265.13,74,100,0.33,1615678103
90,Nyuksenitsa,RU,60.4128,44.2397,267.03,93,100,4.68,1615678403
91,Bluff,NZ,-46.6,168.3333,294.82,49,3,5.81,1615678097
92,Kapuskasing,CA,49.4169,-82.4331,275.15,55,100,6.17,1615678402
93,Antalaha,MG,-14.9003,50.2788,296.37,86,69,3.37,1615678404
94,Stutterheim,ZA,-32.5708,27.424,293.49,49,16,1.18,1615678404
95,Puerto Ayora,EC,-0.7393,-90.3518,300.3,74,40,3.09,1615678171
96,Klichka,RU,50.4457,117.996,268.2,88,42,2.05,1615678404
97,Hopatcong,US,40.9329,-74.6593,278.09,23,0,1.96,1615678405
98,Wad Medani,SD,14.4012,33.5199,300.07,18,80,5.61,1615678405
99,Biak,ID,-0.9131,122.8766,299.78,77,21,0.35,1615678319
100,São Filipe,CV,14.8961,-24.4956,294.7,76,0,2.41,1615678101
101,Buraidah,SA,26.326,43.975,288.15,51,0,2.57,1615678406
102,Broken Hill,AU,-31.95,141.4333,286.15,62,46,10.8,1615678181
103,Muravlenko,RU,63.7898,74.523,258.96,94,99,6.87,1615678406
104,Sangar,RU,63.9242,127.4739,258.6,94,100,2.7,1615678407
105,East London,ZA,-33.0153,27.9116,298.42,66,41,5.89,1615677918
106,Sirūr,IN,18.8333,74.3833,297.09,25,12,3.45,1615678407
107,Aswān,EG,24.0934,32.907,289.85,22,64,4.84,1615678339
108,Longyearbyen,SJ,78.2186,15.6401,258.15,61,75,4.12,1615678407
109,Ostrovnoy,RU,68.0531,39.5131,261.9,92,84,4.92,1615678408
110,Bambous Virieux,MU,-20.3428,57.7575,299.2,83,40,2.57,1615678196
111,Vestmannaeyjar,IS,63.4427,-20.2734,272.61,65,12,8.51,1615678183
112,Bengkulu,ID,-3.8004,102.2655,297.72,79,99,1.81,1615678360
113,Kimbe,PG,-5.5502,150.1429,303.03,66,90,1.69,1615678408
114,Ahipara,NZ,-35.1667,173.1667,295.47,51,0,0.79,1615678353
115,Pindushi,RU,62.9152,34.58,273.51,97,100,3.25,1615678409
116,Cayenne,GF,4.9333,-52.3333,298.36,100,0,1.03,1615678409
117,Nikolskoye,RU,59.7035,30.7861,274.76,87,75,4.0,1615677886
118,Comodoro Rivadavia,AR,-45.8667,-67.5,288.15,67,75,4.63,1615678410
119,Muros,ES,42.7762,-9.0603,280.42,94,9,0.45,1615678212
120,Saint Paul Harbor,US,57.79,-152.4072,274.15,23,1,7.2,1615678192
121,Hasaki,JP,35.7333,140.8333,285.82,47,20,6.17,1615678225
122,Isangel,VU,-19.55,169.2667,301.15,74,90,6.17,1615678173
123,Saskylakh,RU,71.9167,114.0833,251.24,98,54,2.87,1615678179
124,Tommot,RU,58.9564,126.2925,265.09,86,100,3.6,1615678411
125,Geraldton,AU,-28.7667,114.6,295.15,37,0,12.35,1615678216
126,Nyurba,RU,63.2842,118.3319,256.31,94,15,3.25,1615678186
127,Avarua,CK,-21.2078,-159.775,302.15,70,68,3.6,1615678176
128,Lüderitz,NA,-26.6481,15.1594,293.07,72,0,4.73,1615678107
129,Kortkeros,RU,61.8106,51.5806,268.15,63,90,7.0,1615678297
130,Puerto El Triunfo,SV,13.2833,-88.55,306.35,34,0,1.03,1615678412
131,Swindon,GB,51.558,-1.7812,278.8,81,90,7.72,1615678210
132,Mataura,NZ,-46.1927,168.8643,294.82,49,1,5.81,1615678171
133,Khani,GE,41.9563,42.9566,279.15,52,0,11.32,1615678412
134,Port Elizabeth,ZA,-33.918,25.5701,293.15,77,0,3.6,1615677957
135,Newport,GB,51.5877,-2.9984,279.47,74,40,2.24,1615678213
136,Karmaskaly,RU,54.3709,56.1837,255.04,71,0,1.0,1615678413
137,Kaseda-shirakame,JP,31.4167,130.3167,279.41,87,0,1.54,1615678414
138,Tecpan,GT,14.7623,-90.9947,294.74,46,40,7.2,1615678415
139,Coquimbo,CL,-29.9533,-71.3436,290.15,82,20,3.6,1615678199
140,Tual,ID,-5.6667,132.75,301.38,72,99,4.33,1615678415
141,Provideniya,RU,64.3833,-173.3,268.56,94,100,11.07,1615678183
142,Gari,RU,59.4307,62.3497,260.65,88,5,4.91,1615678416
143,Thompson,CA,55.7435,-97.8558,265.15,49,20,5.14,1615677993
144,Port Keats,AU,-14.25,129.55,302.6,73,97,0.89,1615678416
145,Ribeira Grande,PT,38.5167,-28.7,289.54,85,80,12.06,1615678200
146,Nishihara,JP,26.1842,127.7558,290.88,63,75,3.09,1615678417
147,Busselton,AU,-33.65,115.3333,283.41,96,0,5.32,1615678169
148,Teknāf,BD,20.8624,92.3058,296.2,65,0,1.65,1615678417
149,Cochrane,CA,51.1834,-114.4687,286.03,32,20,7.2,1615678184
150,Tazovsky,RU,67.4667,78.7,247.41,80,100,5.14,1615678418
151,Yenagoa,NG,4.9247,6.2642,299.23,87,100,1.97,1615678206
152,Hastings,GB,50.8552,0.5729,276.94,72,62,2.24,1615678419
153,Dawlatabad,AF,36.4141,64.9053,269.17,88,97,3.27,1615678419
154,Jamestown,US,42.097,-79.2353,274.48,34,1,3.79,1615678138
155,Tigre,AR,-34.426,-58.5796,295.75,60,0,2.57,1615678187
156,Butaritari,KI,3.0707,172.7902,300.08,80,77,5.67,1615678115
157,Laas,IT,46.6166,10.7002,277.1,80,75,1.54,1615678101
158,Fortuna,US,40.5982,-124.1573,284.09,71,1,6.69,1615678261
159,Englewood,US,39.6478,-104.9878,272.79,93,90,4.63,1615678253
160,Vila Franca do Campo,PT,37.7167,-25.4333,288.15,94,75,7.72,1615678420
161,Dāmghān,IR,36.1683,54.348,270.46,58,0,0.81,1615678420
162,Madingou,CG,-4.1536,13.55,296.66,98,81,0.9,1615678421
163,Kumul,CN,42.8,93.45,281.58,36,1,2.19,1615678421
164,Sorrento,IT,40.626,14.3744,284.0,76,0,2.06,1615678421
165,Lata,PT,40.1629,-8.3327,282.27,90,1,1.44,1615678422
166,Ponta do Sol,PT,32.6667,-17.1,285.34,72,99,0.45,1615678176
167,Ucluelet,CA,48.9329,-125.5528,281.72,71,90,6.69,1615678244
168,Korla,CN,41.7597,86.1469,280.66,41,34,0.78,1615678422
169,Indian Head,US,38.6001,-77.1622,283.25,58,1,1.44,1615678423
170,Chui,UY,-33.6971,-53.4616,290.78,72,9,3.27,1615678110
171,Mahébourg,MU,-20.4081,57.7,300.15,83,40,2.57,1615678195
172,Tarko-Sale,RU,64.9225,77.785,256.25,96,90,5.76,1615678244
173,Brae,GB,60.3964,-1.353,280.15,81,75,13.89,1615678424
174,Buckeye,US,33.3703,-112.5838,290.0,34,95,0.89,1615678293
175,Castro,BR,-24.7911,-50.0119,292.81,73,35,0.99,1615678105
176,Emerald,AU,-23.5333,148.1667,300.25,69,75,4.12,1615678424
177,Palana,RU,59.1167,159.9667,256.91,90,100,9.14,1615678425
178,Hokitika,NZ,-42.7167,170.9667,290.51,68,0,2.81,1615678425
179,Ancud,CL,-41.8697,-73.8203,288.41,72,0,2.06,1615678099
180,Estelle,US,29.8458,-90.1067,295.92,68,75,4.63,1615678285
181,Talnakh,RU,69.4865,88.3972,243.38,98,100,3.8,1615678258
182,Vila,PT,42.0304,-8.1588,280.37,89,34,0.57,1615678426
183,Rincon,US,32.296,-81.2354,294.22,60,40,8.23,1615678426
184,Chifeng,CN,42.2683,118.9636,277.4,51,76,1.81,1615678426
185,Kaduy,RU,59.2,37.15,272.45,97,91,3.47,1615678426
186,Chernyshevskiy,RU,63.0128,112.4714,254.11,96,99,4.03,1615678427
187,Havelock,US,34.8791,-76.9013,285.57,58,72,0.89,1615678286
188,Yeppoon,AU,-23.1333,150.7333,302.15,61,40,2.06,1615678427
189,Las Palmas,ES,28.4204,-14.0131,291.15,82,75,7.2,1615678428
190,Catió,GW,11.2833,-15.25,295.72,76,75,2.92,1615678428
191,Bethel,US,41.3712,-73.414,277.76,29,1,3.69,1615677839
192,Baie-Comeau,CA,49.2168,-68.1489,266.15,38,90,4.63,1615678132
193,Waipawa,NZ,-41.4122,175.5153,292.41,64,0,9.26,1615678428
194,Mountain Home,US,43.133,-115.6912,284.99,19,1,5.66,1615678429
195,Upernavik,GL,72.7868,-56.1549,251.79,95,24,2.63,1615678177
196,Nouadhibou,MR,20.931,-17.0347,294.15,37,0,10.29,1615678429
197,Lokosovo,RU,61.1333,74.8167,260.39,95,98,4.53,1615678430
198,Tessalit,ML,20.1986,1.0114,292.0,40,7,4.2,1615678243
199,Kawalu,ID,-7.3817,108.2082,296.66,88,98,0.79,1615678430
200,Krasnosel'kup,RU,65.7,82.4667,243.5,80,43,5.36,1615678236
201,Goderich,CA,43.7501,-81.7165,277.15,56,0,6.69,1615678430
202,Ketchikan,US,55.3422,-131.6461,274.15,93,90,3.6,1615678262
203,Tuatapere,NZ,-46.1333,167.6833,294.82,49,13,5.81,1615678176
204,Naze,JP,28.3667,129.4833,291.15,68,75,3.6,1615678431
205,Ýpsonas,CY,34.6884,32.9574,284.15,82,0,1.54,1615678431
206,Rocha,UY,-34.4833,-54.3333,288.31,76,10,1.99,1615678177
207,Chapais,CA,49.7834,-74.8492,263.15,85,90,3.6,1615678178
208,Dalbandin,PK,28.8947,64.4101,289.68,55,10,2.18,1615678432
209,San Policarpo,PH,12.1791,125.5072,298.54,89,99,1.64,1615678432
210,Opuwo,NA,-18.0607,13.84,293.29,76,10,1.71,1615678192
211,Kattivākkam,IN,13.2167,80.3167,296.15,88,20,1.54,1615678433
212,Buala,SB,-8.145,159.5921,302.22,70,91,2.05,1615678434
213,Rumoi,JP,43.9344,141.6428,276.81,63,100,1.55,1615678434
214,Måløy,NO,61.9353,5.1136,277.4,81,90,8.23,1615678435
215,Ukiah,US,39.1502,-123.2078,289.96,39,1,4.63,1615678164
216,Kamina,CD,-8.7386,24.9906,291.15,93,100,1.2,1615678435
217,Aklavik,CA,68.2191,-135.0107,253.15,65,1,2.57,1615678436
218,Ballarpur,IN,19.8333,79.35,295.66,27,13,1.09,1615678436
219,Nicoya,CR,10.1483,-85.452,304.15,42,0,8.23,1615678436
220,Benicarló,ES,40.4165,0.4271,279.82,66,0,3.13,1615678437
221,Deep River,CA,46.1001,-77.4995,273.15,47,90,1.54,1615678413
222,Dwārka,IN,22.2394,68.9678,297.24,77,0,5.38,1615678437
223,Marawi,PH,7.9986,124.2928,296.48,92,100,2.24,1615678438
224,Kalemie,CD,-5.9475,29.1947,294.86,81,67,0.71,1615678438
225,Gävle,SE,60.6745,17.1417,274.22,82,100,0.45,1615678141
226,Nantucket,US,41.2835,-70.0995,277.11,60,1,7.2,1615678438
227,Kirgiz-Miyaki,RU,53.6324,54.7979,255.24,84,26,3.18,1615678439
228,Shangrao,CN,28.4532,117.9686,287.42,89,5,1.29,1615678439
229,Pangody,RU,65.85,74.4859,258.57,97,99,5.23,1615678439
230,Sisimiut,GL,66.9395,-53.6735,261.53,89,97,2.6,1615678440
231,Sijunjung,ID,-0.6876,100.9537,295.58,97,72,0.41,1615678440
232,Margate,GB,51.3813,1.3862,277.5,70,67,1.34,1615678269
233,Cherskiy,RU,68.75,161.3,252.22,96,100,7.04,1615678117
234,Kaitangata,NZ,-46.2817,169.8464,291.71,49,1,1.0,1615678441
235,Coxim,BR,-18.5067,-54.76,298.37,76,49,1.94,1615678441
236,Liverpool,GB,53.4106,-2.9779,280.21,81,75,8.75,1615677862
237,Ejura,GH,7.3856,-1.3562,298.27,76,87,2.45,1615678441
238,Bandarbeyla,SO,9.4942,50.8122,298.27,79,47,3.31,1615678442
239,Bonthe,SL,7.5264,-12.505,299.57,82,100,3.99,1615678219
240,Port Hardy,CA,50.6996,-127.4199,281.15,87,90,6.17,1615678107
241,Vila Velha,BR,-20.3297,-40.2925,298.15,83,0,2.06,1615678254
242,Yeniseysk,RU,58.4497,92.1703,260.4,90,100,4.93,1615678443
243,São João da Barra,BR,-21.6403,-41.0511,297.93,86,79,5.67,1615678443
244,Pisco,PE,-13.7,-76.2167,297.17,73,0,1.54,1615678444
245,Mosal'sk,RU,54.4881,34.9817,273.26,98,100,6.43,1615678444
246,Shaunavon,CA,49.6501,-108.4181,282.15,34,0,1.03,1615678444
247,Atuona,PF,-9.8,-139.0333,299.43,61,54,2.21,1615677831
248,Gönen,TR,40.1049,27.654,279.58,93,0,0.51,1615678445
249,Dabat,ET,12.9842,37.765,287.57,36,0,3.63,1615678445
250,Pevek,RU,69.7008,170.3133,253.39,97,100,3.25,1615677871
251,Coahuayana Viejo,MX,18.7333,-103.6833,303.15,39,1,5.14,1615678446
252,Faya,SA,18.3851,42.4509,291.15,34,1,0.92,1615678446
253,The Valley,AI,18.217,-63.0578,297.84,78,40,1.54,1615678260
254,Padang,ID,-0.9492,100.3543,297.15,94,90,1.54,1615678447
255,Muswellbrook,AU,-32.2667,150.9,295.37,83,99,0.45,1615678100
256,Chihuahua,MX,28.5,-106.0,299.15,2,1,15.95,1615678447
257,Monaghan,IE,54.25,-6.9667,277.87,93,20,5.14,1615678447
258,Sabang,ID,5.8933,95.3214,301.31,73,41,5.09,1615678448
259,Ilulissat,GL,69.2167,-51.1,261.15,67,100,8.23,1615678099
260,Bodmin,GB,50.4715,-4.7243,279.2,70,75,11.83,1615678448
261,Jacareacanga,BR,-6.2222,-57.7528,296.47,99,96,0.84,1615678449
262,Krasnyy Chikoy,RU,50.3643,108.7512,271.68,87,83,4.03,1615678449
263,Harper,LR,4.375,-7.7169,299.21,87,100,4.9,1615678211
264,São Joaquim,BR,-28.2939,-49.9317,287.2,97,70,1.36,1615678449
265,Goya,AR,-29.14,-59.2626,299.1,41,99,1.73,1615678261
266,Leningradskiy,RU,69.3833,178.4167,267.52,82,100,2.07,1615678188
267,Umluj,SA,25.0213,37.2685,294.73,63,91,4.02,1615678450
268,Bonavista,CA,48.6499,-53.1147,273.61,69,97,1.54,1615678450
269,Beloretsk,RU,53.9631,58.3981,256.15,71,0,2.0,1615678451
270,Pacific Grove,US,36.6177,-121.9166,285.09,62,75,4.63,1615678451
271,Ust-Nera,RU,64.5667,143.2,245.91,91,1,1.01,1615678178
272,Westport,US,41.1415,-73.3579,279.55,26,1,5.14,1615678231
273,Kloulklubed,PW,7.0419,134.2556,300.15,94,40,2.57,1615678451
274,Koumac,NC,-20.5667,164.2833,300.5,66,98,1.64,1615678165
275,Garachiné,PA,8.0647,-78.3628,299.79,77,36,5.02,1615678452
276,Essex,US,40.7834,-74.2163,280.91,20,20,6.17,1615677627
277,Linxia Chengguanzhen,CN,35.6003,103.2064,280.45,37,100,1.13,1615678452
278,Xudat,AZ,41.631,48.681,274.03,79,73,1.42,1615678453
279,Salé,MA,34.0389,-6.8166,282.42,100,0,2.55,1615678453
280,Dingle,PH,10.9995,122.6711,299.31,85,93,2.34,1615678454
281,Coffs Harbour,AU,-30.3,153.1333,300.65,69,40,6.69,1615678339
282,Kenai,US,60.5544,-151.2583,266.55,35,1,1.91,1615678238
283,Palmas,BR,-10.2128,-48.3603,300.15,74,40,1.03,1615678455
284,Bystřice,CZ,49.6366,18.7204,274.95,84,100,1.34,1615678455
285,Pochutla,MX,15.7432,-96.4661,303.42,51,75,3.6,1615678201
286,Beloha,MG,-25.1667,45.05,296.23,75,14,7.03,1615678231
287,La Ronge,CA,55.1001,-105.2842,273.15,51,1,3.6,1615678177
288,Raudeberg,NO,61.9875,5.1352,277.59,76,94,6.28,1615678456
289,Iquitos,PE,-3.7481,-73.2472,302.15,70,75,2.06,1615678280
290,Road Town,VG,18.4167,-64.6167,298.15,73,40,2.57,1615678456
291,Rio Grande,BR,-32.035,-52.0986,295.17,88,6,5.39,1615678457
292,Shatrovo,RU,56.5167,64.6333,257.57,92,29,3.75,1615678457
293,Shevchenkove,UA,49.6959,37.1735,272.1,93,90,3.0,1615678457
294,Uglovoye,UA,44.8215,33.6045,278.71,53,81,1.89,1615678458
295,Grand Bank,CA,47.0999,-55.765,271.04,69,75,9.77,1615678458
296,Honningsvåg,NO,70.9821,25.9704,270.3,76,100,3.73,1615678458
297,Kodinsk,RU,58.6881,99.1844,259.41,90,65,5.73,1615678404
298,Sindhnūr,IN,15.7833,76.7667,291.44,62,21,0.78,1615678459
299,Vechelde,DE,52.2604,10.3649,278.26,70,90,11.32,1615678459
300,Constitución,CL,-35.3333,-72.4167,286.98,91,15,0.44,1615678460
301,Wenling,CN,28.3669,121.36,287.04,80,48,0.36,1615678460
302,Cabo San Lucas,MX,22.8909,-109.9124,294.38,52,1,4.63,1615678102
303,Ciudad del Carmen,MX,18.6333,-91.8333,301.15,69,20,6.17,1615678461
304,Pine Bluff,US,34.2284,-92.0032,294.56,64,20,4.12,1615678207
305,Yangjiang,CN,21.85,111.9667,293.94,85,2,2.43,1615678462
306,Shimanovsk,RU,52.0,127.7,271.81,84,53,4.83,1615678462
307,Qandala,SO,11.472,49.8728,298.03,71,7,1.19,1615678462
308,Nueve de Julio,AR,-35.4444,-60.8831,299.26,40,2,0.89,1615678463
309,Betioky,MG,-23.7167,44.3833,295.76,77,0,2.88,1615678463
310,Aykhal,RU,66.0,111.5,255.68,94,100,7.73,1615678463
311,Acaraú,BR,-2.8856,-40.12,298.84,84,81,4.38,1615678464
312,Champerico,GT,14.3,-91.9167,297.81,70,75,4.12,1615678464
313,Tyukhtet,RU,56.5389,89.3011,255.81,90,100,6.43,1615678464
314,Askino,RU,56.0901,56.5783,255.04,92,36,4.54,1615678465
315,Natal,BR,-5.795,-35.2094,300.67,69,40,5.66,1615678443
316,Aktau,KZ,43.65,51.2,266.15,53,0,4.0,1615678465
317,Sakakah,SA,29.9697,40.2064,286.15,41,0,1.54,1615678465
318,Kavieng,PG,-2.5744,150.7967,301.94,62,7,1.54,1615678116
319,Aitape,PG,-3.1374,142.3475,301.0,82,100,1.82,1615678466
320,San Cristobal,VE,7.7669,-72.225,299.15,61,40,1.03,1615678164
321,Shakawe,BW,-18.3667,21.85,293.0,75,1,2.1,1615678466
322,Kinablangan,PH,7.6947,126.5503,300.28,77,70,0.52,1615678467
323,Saint George,US,37.1041,-113.5841,282.46,57,1,1.54,1615678209
324,Dali,CN,25.7,100.1833,282.43,64,0,2.02,1615678234
325,Ballina,AU,-28.8667,153.5667,299.43,69,0,4.63,1615678467
326,Lerwick,GB,60.1545,-1.1494,280.15,81,75,13.89,1615678467
327,Vazhiny,RU,60.9644,34.0222,274.0,98,100,2.31,1615678468
328,Marabu,MY,4.4148,114.0089,297.1,100,40,1.54,1615678468
329,Rājpīpla,IN,21.8667,73.5,294.79,21,0,1.78,1615678468
330,Ixtapa,MX,20.7,-105.2,298.37,65,1,5.14,1615678469
331,Rawson,AR,-43.3002,-65.1023,289.88,75,46,9.46,1615678296
332,Hukuntsi,BW,-24.0,21.75,296.19,46,39,3.01,1615678469
333,Mersing,MY,2.4312,103.8405,299.15,89,54,3.09,1615678470
334,Wuxue,CN,29.8506,115.5525,285.86,85,0,2.31,1615678470
335,Macas,EC,-2.3167,-78.1167,294.15,88,75,2.57,1615678470
336,Forsytheganj,BY,52.6333,29.7333,274.06,94,97,4.97,1615678471
337,Carnarvon,AU,-24.8667,113.6333,300.15,74,2,3.6,1615678098
338,Antsohihy,MG,-14.8796,47.9875,295.07,90,52,1.97,1615678344
339,Xining,CN,36.6167,101.7667,279.19,28,99,0.39,1615678102
340,Alofi,NU,-19.0595,-169.9187,302.15,70,44,4.12,1615678471
341,Egvekinot,RU,66.3167,-179.1667,269.95,97,100,7.32,1615678107
342,Lavrentiya,RU,65.5833,-171.0,263.56,88,100,8.76,1615678472
343,Tavda,RU,58.0425,65.2726,259.44,92,0,3.69,1615678472
344,Yerbogachën,RU,61.2767,108.0108,254.89,94,35,3.92,1615678285
345,Baltay,RU,52.4652,46.6308,263.59,89,100,4.97,1615678473
346,Huarmey,PE,-10.0681,-78.1522,296.01,80,2,3.46,1615678473
347,Meulaboh,ID,4.1363,96.1285,297.98,80,98,0.19,1615678474
348,Noumea,NC,-22.2763,166.4572,303.15,51,20,3.09,1615678474
349,Sambava,MG,-14.2667,50.1667,297.4,80,74,4.25,1615678475
350,Palmer,US,42.1584,-72.3287,276.28,26,20,5.66,1615678475
351,Nortelândia,BR,-14.4547,-56.8028,297.45,87,99,0.66,1615678476
352,Ponferrada,ES,42.5466,-6.5962,281.2,82,92,2.05,1615678476
353,Luancheng,CN,37.8792,114.6517,283.15,87,59,3.0,1615678477
354,Upington,ZA,-28.4478,21.2561,299.15,47,75,2.57,1615678477
355,Tabou,CI,4.423,-7.3528,299.09,86,100,4.28,1615678477
356,Portland,US,45.5234,-122.6762,289.31,41,75,2.57,1615678251
357,Sahuaripa,MX,29.05,-109.2333,291.43,16,0,4.5,1615678478
358,Ca Mau,VN,9.1769,105.15,298.28,78,64,3.4,1615678232
359,Severo-Kuril'sk,RU,50.6789,156.125,273.12,92,40,9.89,1615678478
360,Bayan,CN,46.0833,127.4,272.3,78,1,2.47,1615678479
361,Rudnyy,KZ,52.9594,63.1206,248.15,84,0,2.0,1615678479
362,Evensk,RU,61.95,159.2333,256.5,65,100,1.54,1615678479
363,Akdepe,TM,42.0551,59.3788,263.68,53,37,5.14,1615678480
364,Seddon,AU,-37.8068,144.8916,287.98,62,46,6.17,1615678480
365,Batemans Bay,AU,-35.7167,150.1833,284.09,95,100,0.89,1615678480
366,Labuhan,ID,-6.8844,112.2051,298.99,79,100,2.25,1615678481
367,Vao,NC,-22.6667,167.4833,298.01,77,89,8.62,1615678481
368,Aripuanã,BR,-9.1667,-60.6333,296.43,97,99,0.86,1615678481
369,Necochea,AR,-38.5473,-58.7368,293.15,84,0,1.84,1615678482
370,Los Llanos de Aridane,ES,28.6585,-17.9182,288.36,59,75,4.63,1615678199
371,Shimoda,JP,34.6667,138.95,285.97,72,20,4.63,1615678482
372,Mayor Pablo Lagerenza,PY,-19.9309,-60.7718,303.14,46,79,2.01,1615678483
373,General Roca,AR,-39.0333,-67.5833,300.15,32,0,1.54,1615678483
374,Skjervøy,NO,70.0311,20.9714,273.49,97,100,3.03,1615678483
375,Tuntum,BR,-5.2581,-44.6489,296.2,96,61,1.36,1615678483
376,Boddam,GB,57.4667,-1.7833,277.28,75,88,4.12,1615678484
377,Paamiut,GL,61.994,-49.6678,265.33,53,100,3.52,1615678227
378,Lompoc,US,34.6391,-120.4579,285.81,62,40,7.2,1615678023
379,Paita,PE,-5.0892,-81.1144,301.15,69,0,4.63,1615678484
380,Iqaluit,CA,63.7506,-68.5145,245.26,69,75,6.69,1615678485
381,Tandil,AR,-37.3217,-59.1332,297.04,55,78,1.79,1615678485
382,Veseloyarsk,RU,51.2836,81.1056,246.78,100,26,0.2,1615678485
383,Najrān,SA,17.4924,44.1277,294.15,26,90,3.09,1615678486
384,Qixingtai,CN,30.4135,111.8874,285.93,90,5,3.75,1615678486
385,Hofn,IS,64.2539,-15.2082,274.67,54,99,5.85,1615678486
386,Sola,VU,-13.8833,167.55,302.15,84,90,4.88,1615678487
387,Mitsamiouli,KM,-11.3847,43.2844,300.85,72,98,1.54,1615678487
388,Zhigansk,RU,66.7697,123.3711,258.63,95,100,4.9,1615678487
389,Muroto-misakicho,JP,33.2833,134.15,283.15,46,0,3.09,1615678488
390,Province of Mantua,IT,45.1667,10.7833,280.08,81,43,0.89,1615678488
391,Saint-Pierre,RE,-21.3393,55.4781,296.45,73,0,5.14,1615678488
392,Riyadh,SA,24.6877,46.7219,289.78,36,47,2.86,1615678284
393,Santa Rosa,PH,14.3122,121.1114,299.23,78,75,2.06,1615678489
394,Beringovskiy,RU,63.05,179.3167,268.84,89,28,3.03,1615678218
395,Pec,XK,42.6591,20.2883,277.15,93,0,1.03,1615678489
396,Mayo,US,38.8876,-76.5119,281.02,34,1,2.57,1615678490
397,Petropavlovsk-Kamchatskiy,RU,53.0452,158.6483,270.15,63,40,5.0,1615678235
398,Dzilam González,MX,21.2833,-88.9333,298.97,62,20,5.02,1615678490
399,Jāwad,IN,24.6,74.85,293.41,36,33,1.95,1615678290
400,Zhuanghe,CN,39.7008,122.9911,276.48,83,0,0.61,1615678491
401,Altay,CN,47.8667,88.1167,262.11,63,100,1.19,1615678491
402,Bhadrāchalam,IN,17.6667,80.8833,292.52,78,28,1.11,1615678492
403,Pudozh,RU,61.8099,36.5345,273.64,97,100,3.96,1615678492
404,Dārāb,IR,28.7519,54.5444,285.13,36,1,0.41,1615678492
405,Jüterbog,DE,51.9833,13.0833,277.93,67,38,4.92,1615678493
406,Kangar,MY,6.4414,100.1986,297.02,94,20,2.56,1615678493
407,Thessaloniki,GR,40.6403,22.9439,282.74,84,3,0.45,1615678241
408,Tautira,PF,-17.7333,-149.15,303.67,66,20,2.57,1615678494
409,Avera,US,33.194,-82.5271,296.21,53,1,3.07,1615678495
410,Zaranj,AF,30.9667,61.8833,281.23,41,1,7.31,1615678495
411,Huangmei,CN,30.1924,116.025,285.95,80,0,1.41,1615678496
412,Moree,AU,-29.4667,149.85,295.15,88,75,7.72,1615678496
413,Tasiilaq,GL,65.6145,-37.6368,269.15,80,75,10.8,1615678188
414,Namtsy,RU,62.7161,129.6658,263.15,85,20,3.0,1615678232
415,Codrington,AU,-38.2667,141.9667,288.25,49,51,5.32,1615678497
416,Sur,OM,22.5667,59.5289,299.07,35,0,6.72,1615678179
417,Bud,US,39.447,-86.1758,281.89,34,1,1.87,1615678336
418,Rosarito,MX,32.3333,-117.0333,286.78,76,75,7.72,1615678497
419,Taoudenni,ML,22.6783,-3.9836,294.14,43,90,5.01,1615678498
420,Avila,ES,40.5833,-5.0,277.59,81,57,0.89,1615678498
421,Iralaya,HN,15.0,-83.2333,301.15,78,40,2.06,1615678498
422,Leon Valley,US,29.4952,-98.6186,297.48,61,20,7.72,1615678499
423,Kahului,US,20.8947,-156.47,294.39,94,90,7.72,1615678257
424,Balkhash,KZ,46.844,74.9804,261.66,55,100,8.98,1615678499
425,Amahai,ID,-3.3333,128.9167,303.71,85,98,1.6,1615678500
426,Yoichi,JP,43.2039,140.7703,277.09,81,75,4.63,1615678295
427,Bathsheba,BB,13.2167,-59.5167,299.15,69,40,5.14,1615678197
428,Roald,NO,62.5833,6.1333,274.98,70,20,3.09,1615678230
429,Belmonte,BR,-15.8631,-38.8828,299.15,69,0,4.63,1615678500
430,Rosário Oeste,BR,-14.8361,-56.4275,297.44,88,58,0.96,1615678501
431,Corowa,AU,-36.0333,146.3833,289.26,60,32,2.68,1615678501
432,Port Blair,IN,11.6667,92.75,299.07,75,12,2.63,1615678501
433,Rájec-Jestřebí,CZ,49.4109,16.639,280.73,56,90,4.33,1615678503
434,Colares,PT,38.7992,-9.4469,284.48,74,0,8.49,1615678360
435,Dalvik,IS,65.9702,-18.5286,268.15,74,40,3.09,1615678504
436,Francavilla al Mare,IT,42.4206,14.287,288.15,38,8,6.17,1615678504
437,Skibbereen,IE,51.55,-9.2667,277.15,81,20,7.2,1615678505
438,São José da Coroa Grande,BR,-8.8978,-35.1478,298.98,79,36,4.04,1615678505
439,Mitrofanovka,RU,49.9708,39.6939,270.56,96,95,4.09,1615678506
440,La Seyne-sur-Mer,FR,43.0982,5.8847,285.19,69,87,4.02,1615678506
441,Sambek,RU,47.7431,39.8308,275.15,75,75,4.0,1615678506
442,Half Moon Bay,US,37.4636,-122.4286,284.58,71,90,4.12,1615678507
443,Sirte,LY,31.2089,16.5887,289.3,62,100,8.52,1615678105
444,Mīāndoāb,IR,36.9694,46.1027,273.7,62,2,0.25,1615678508
445,Genhe,CN,50.7833,121.5167,269.31,87,58,1.93,1615678230
446,Mossamedes,AO,-15.1961,12.1522,297.02,80,55,2.56,1615678508
447,Taldan,RU,53.6667,124.8,270.48,91,100,1.34,1615678508
448,Athabasca,CA,54.7169,-113.2854,280.21,46,76,4.12,1615678509
449,Mbanza-Ngungu,CD,-5.25,14.8667,294.09,96,84,1.76,1615678108
450,Ruska Poliana,UA,49.417,31.9201,273.55,94,90,3.87,1615678509
451,Saint-Augustin,CA,51.226,-58.6502,267.1,76,100,8.21,1615678274
452,Shingū,JP,33.7333,135.9833,282.15,66,20,9.26,1615678510
453,Port-Gentil,GA,-0.7193,8.7815,299.15,89,20,1.54,1615678510
454,Korhogo,CI,9.45,-5.6333,300.04,21,87,0.89,1615678510
455,Deputatsky,RU,69.3,139.9,242.65,76,0,1.05,1615678191
456,Villiers,ZA,-27.0303,28.6006,285.21,68,0,2.43,1615678511
457,Churapcha,RU,62.0025,132.4325,263.49,92,100,2.16,1615678511
458,Nuuk,GL,64.1835,-51.7216,263.65,67,64,7.72,1615678512
459,Abhā,SA,18.2164,42.5053,291.15,34,5,1.03,1615678297
460,Mehamn,NO,71.0357,27.8492,268.14,86,100,2.9,1615678512
461,Fort Frances,CA,48.5999,-93.4003,282.15,31,1,7.2,1615678423
462,Hedaru,TZ,-4.5,37.9,292.99,91,51,0.2,1615678513
463,Salalah,OM,17.0151,54.0924,296.15,78,0,1.03,1615678513
464,San Patricio,US,28.017,-97.5169,297.43,73,40,10.29,1615678300
465,Todos Santos,MX,23.45,-110.2167,298.15,24,16,4.47,1615678514
466,Villa Bruzual,VE,9.3328,-69.1208,300.73,57,67,3.35,1615678514
467,La Concordia,NI,13.1953,-86.1667,295.15,73,75,6.17,1615678515
468,Broome,US,42.2506,-75.833,274.92,30,1,3.6,1615678113
469,Zhangye,CN,38.9342,100.4517,281.61,23,37,3.26,1615678516
470,La Romana,DO,18.4273,-68.9728,297.15,83,40,3.09,1615678516
471,Carquefou,FR,47.2982,-1.4902,279.64,70,0,5.14,1615678516
472,Okhotsk,RU,59.3833,143.3,255.8,63,57,3.55,1615678516
473,Mālūr,IN,13.0075,77.9378,290.15,72,0,1.54,1615678517
474,Alugan,PH,12.2188,125.4808,298.51,89,99,1.59,1615678517
475,Mount Gambier,AU,-37.8333,140.7667,286.15,76,57,3.09,1615678306
476,Turukhansk,RU,65.8167,87.9833,240.39,98,60,3.78,1615677958
477,Shirvan,AZ,39.9509,48.8994,275.52,74,80,0.36,1615678518
478,Bilibino,RU,68.0546,166.4372,253.5,94,100,1.93,1615678518
479,Tartagal,AR,-22.5164,-63.8013,298.0,67,93,0.41,1615678518
480,Flin Flon,CA,54.7682,-101.865,274.15,37,40,1.03,1615678519
481,Santa Vitória do Palmar,BR,-33.5189,-53.3681,290.5,74,19,2.86,1615678495
482,Gârceni,RO,46.7667,27.2833,274.92,100,90,6.69,1615678519
483,Yar-Sale,RU,66.8333,70.8333,259.38,91,100,4.32,1615678093
484,Port Macquarie,AU,-31.4333,152.9167,301.83,73,40,2.57,1615678347
485,Vostok,RU,46.4856,135.8833,273.46,77,47,0.43,1615678520
486,Strezhevoy,RU,60.7333,77.5889,258.15,92,0,3.0,1615678521
487,Mattru,SL,7.6244,-11.8332,298.81,83,100,1.78,1615678521
488,São Félix do Xingu,BR,-6.6447,-51.995,295.66,98,85,1.02,1615678118
489,Arman',RU,59.7,150.1667,257.31,67,0,2.45,1615678521
490,Rivers,CA,50.0308,-100.2403,282.15,49,1,4.12,1615678522
491,Byron Bay,AU,-28.65,153.6167,299.17,69,4,4.63,1615678402
492,Vendas Novas,PT,38.6771,-8.4579,285.13,82,0,1.54,1615678522
493,Anking,CN,30.5092,117.0506,285.61,78,0,0.37,1615678522
494,Mazyr,BY,52.0495,29.2456,274.66,93,99,5.39,1615678272
495,Kununurra,AU,-15.7667,128.7333,301.15,89,100,2.06,1615678523
496,Pokhara,NP,28.2333,83.9833,289.44,34,16,2.1,1615678250
497,Stupino,RU,54.9008,38.0708,271.02,86,90,5.0,1615678523
498,Solnechnyy,RU,50.7214,136.6319,271.92,85,71,3.6,1615678524
499,Amaraji,BR,-8.3831,-35.4525,300.15,65,40,3.6,1615678524
500,Puro,PH,12.4841,123.3827,298.67,85,100,3.45,1615678524
501,Carauari,BR,-4.8828,-66.8958,296.87,94,91,0.67,1615678525
502,Waitati,NZ,-45.75,170.5667,290.93,71,0,3.58,1615678525
503,Talagante,CL,-33.6667,-70.9333,295.36,49,0,5.14,1615678525
504,Bah,IN,26.87,78.5975,293.72,43,30,3.05,1615678526
505,Sri Aman,MY,1.2376,111.4621,297.1,100,43,0.24,1615678526
506,Port Lincoln,AU,-34.7333,135.8667,288.38,54,67,4.69,1615678526
507,Surgut,RU,61.25,73.4167,262.15,73,0,4.0,1615678527
508,Monroe,US,43.1501,-77.6831,274.8,48,75,8.23,1615678252
509,Waddān,LY,29.1614,16.139,291.42,31,100,7.64,1615678246
510,Breytovo,RU,58.2993,37.8617,273.05,93,95,4.34,1615678527
511,Peterhead,GB,57.5058,-1.7981,277.28,75,89,4.12,1615678527
512,Te Anau,NZ,-45.4167,167.7167,291.34,55,25,5.0,1615678249
513,Saint Anthony,US,45.0205,-93.218,287.51,33,1,4.63,1615678528
514,Kumluca,TR,36.3703,30.2869,286.04,82,72,1.94,1615678528
515,Ivankiv,UA,50.9386,29.8943,276.04,87,98,4.0,1615678529
516,Sioux Lookout,CA,50.1001,-91.917,279.15,31,40,9.26,1615678529
517,Ponta Delgada,PT,37.7333,-25.6667,288.15,94,75,7.72,1615678385
518,Mount Isa,AU,-20.7333,139.5,301.15,61,24,5.14,1615678248
519,La Unión,PE,-5.4,-80.75,301.94,51,5,7.25,1615678529
520,Hualmay,PE,-11.0964,-77.6139,295.68,81,5,2.6,1615678530
521,Alto Longá,BR,-5.2511,-42.2103,296.55,92,66,0.58,1615678530
522,Prince Rupert,CA,54.3161,-130.3201,273.76,100,90,2.57,1615678410
523,Norman Wells,CA,65.282,-126.8329,254.15,60,75,1.03,1615677944
524,Tripoli,LY,32.8752,13.1875,288.38,71,100,3.32,1615678511
525,Kushima,JP,31.4583,131.2333,281.43,62,20,3.09,1615678531
526,Singaparna,ID,-7.3515,108.111,296.2,85,96,0.9,1615678531
527,Kindu,CD,-2.95,25.95,293.03,97,100,1.04,1615678531
528,Barra do Garças,BR,-15.89,-52.2567,297.3,89,76,1.7,1615678532
529,Camacupa,AO,-12.0167,17.4833,289.58,93,97,1.19,1615678110
530,Bānkura,IN,23.25,87.0667,292.63,56,0,2.46,1615678532
531,Panama City,PA,8.9936,-79.5197,302.87,54,20,6.69,1615678533
532,Muaná,BR,-1.5283,-49.2167,297.55,94,95,1.95,1615678533
533,Presidente Médici,BR,-11.1753,-61.9014,296.89,90,99,1.44,1615678534
534,Vyazemskiy,RU,47.5378,134.7525,272.16,73,0,0.66,1615678535
535,Irbit,RU,57.6705,63.071,259.11,90,0,4.0,1615678535
536,Sangmélima,CM,2.9333,11.9833,293.95,97,89,1.75,1615678536
537,Pa Sang,TH,18.5262,98.9394,296.81,73,2,0.51,1615678536
538,Čierna nad Tisou,SK,48.417,22.0887,279.19,80,100,1.79,1615678537
539,Mokrous,RU,51.2333,47.5167,264.28,79,100,5.51,1615678537
540,Dhārchula,IN,29.85,80.5333,285.69,18,0,3.06,1615678537
541,Dakar,SN,14.6937,-17.4441,294.15,68,1,4.12,1615678369
542,Hutchinson,US,38.0608,-97.9298,287.36,94,90,3.6,1615678475
543,Belyy Yar,RU,53.6039,91.3903,256.15,66,0,6.0,1615678538
544,Qasigiannguit,GL,68.8193,-51.1922,261.15,67,100,8.23,1615678538
545,Houma,US,29.5958,-90.7195,296.73,53,1,5.14,1615678539
546,Jepara,ID,-5.1695,105.7044,296.48,95,99,1.54,1615678539
547,Aranos,NA,-24.1333,19.1167,296.4,48,1,5.03,1615678539
548,Isla Mujeres,MX,21.2311,-86.731,299.38,57,40,5.14,1615678540
549,Arroyo de la Encomienda,ES,41.6096,-4.7969,279.31,81,0,3.6,1615678540
550,Fairbanks,US,64.8378,-147.7164,257.64,55,1,1.17,1615678540
551,Atar,MR,20.5169,-13.0499,292.94,11,0,3.45,1615678541
552,Manicoré,BR,-5.8092,-61.3003,298.15,94,100,1.54,1615678541
553,Yinchuan,CN,38.4681,106.2731,284.92,34,94,0.88,1615678541
554,College,US,64.8569,-147.8028,257.48,46,1,1.14,1615677982
555,Westerland,DE,54.9079,8.3033,277.09,93,90,7.72,1615678542
556,Pangnirtung,CA,66.1451,-65.7125,247.57,99,99,0.09,1615678542
557,Amazar,RU,53.858,120.875,269.61,94,100,1.14,1615678543
558,Nabire,ID,-3.3667,135.4833,299.68,79,98,0.9,1615678543
559,Caravelas,BR,-17.7125,-39.2481,297.49,81,0,2.54,1615678194
560,Khovd,MN,48.0056,91.6419,263.24,27,100,7.83,1615678256
561,Kutum,SD,14.2,24.6667,292.49,18,65,3.09,1615678091
562,Lusambo,CD,-4.9667,23.45,294.27,96,100,0.37,1615678544
563,Nago,JP,26.5881,127.9761,290.37,88,75,3.09,1615678544
564,Oranjestad,AW,12.524,-70.027,300.15,74,20,5.66,1615678520
565,Manggar,ID,-2.8833,108.2667,299.06,84,56,1.97,1615678544
566,Anori,BR,-3.7728,-61.6442,297.38,90,38,1.03,1615678545
567,Monte Santo,BR,-10.4378,-39.3328,296.94,69,16,5.38,1615678545
568,Kamiiso,JP,41.8167,140.65,278.15,93,75,2.57,1615678545
569,Nome,US,64.5011,-165.4064,260.29,72,75,10.8,1615678397
570,Tibati,CM,6.4667,12.6333,293.49,88,100,2.78,1615678546
571,Våler,NO,60.6785,11.8331,271.9,93,75,1.03,1615678546
572,Pascagoula,US,30.3658,-88.5561,293.79,56,1,3.09,1615678547
573,Swellendam,ZA,-34.0226,20.4417,292.15,88,95,4.63,1615678547
574,Beni Suef,EG,29.0731,31.0979,286.03,67,27,4.98,1615678547
575,Pelym,RU,61.0108,61.9978,262.26,89,29,3.72,1615678548
576,Jalor,IN,25.35,72.6167,289.58,41,30,0.46,1615678384
577,Ust'-Shonosha,RU,61.1531,41.343,268.31,92,100,4.61,1615678548
578,Berlevåg,NO,70.8578,29.0864,268.75,84,99,3.63,1615678091
579,Hurghada,EG,27.2574,33.8129,291.15,34,0,5.14,1615678549
580,Batagay-Alyta,RU,67.8006,130.4114,249.14,86,89,0.9,1615678549
581,Marrakesh,MA,31.6315,-8.0083,289.15,72,0,2.57,1615678393
582,Juliaca,PE,-15.5,-70.1333,281.9,74,70,2.3,1615678549
583,Nador,MA,35.174,-2.9287,284.79,67,0,2.06,1615678550
584,Dunedin,NZ,-45.8742,170.5036,290.93,71,0,3.58,1615678550
585,Srednekolymsk,RU,67.45,153.6833,245.54,96,75,1.9,1615678186
586,Dois Vizinhos,BR,-25.7336,-53.0572,292.39,73,0,0.89,1615678395
587,Syamzha,RU,60.0158,41.0614,267.12,93,100,3.83,1615678551
588,Bahía Blanca,AR,-38.7196,-62.2724,296.88,37,23,3.73,1615678551
589,Lagoa,PT,39.05,-27.9833,288.77,84,39,12.87,1615678551
590,Erenhot,CN,43.6475,111.9767,278.75,62,84,4.2,1615678552
591,Freeport,US,40.6576,-73.5832,280.12,39,1,6.17,1615678340
592,Formosa,AR,-26.1775,-58.1781,300.15,57,0,2.57,1615678351
593,Parabel',RU,58.6978,81.4825,259.21,94,94,4.16,1615678552
594,Lurgan,GB,54.4608,-6.3294,277.64,93,20,5.14,1615678552
595,Mirny,RU,62.5353,113.9611,255.03,94,75,3.61,1615678553
596,Salinas,US,36.6777,-121.6555,285.71,62,90,5.14,1615678351
